place,lat,lon
Melbourne,-37.814,144.96332
Bendigo,-36.7587,144.2837
Horsham,-36.7131,142.1999
Geelong,-38.1485,144.3613
Warrnambool,-38.3828,142.4845
Mildura,-34.2063,142.1358
Traralgon,-38.1971,146.5346